[
    {
        "stationName": "Tam Kỳ",
        "stationType": 1,
        "stationTypeName": "OPEN",
        "latitude": 15.548552399971983,
        "longitude": 108.51842630000002,
        "stationOsmId": "6860284192",
        "incoming_edges": [
            "Quảng Ngãi",
            "Bắc Quảng Ngãi",
            "Phong Thử",
            "Túy Loan",
            "Dung Quất",
            "Hà Lam",
            "Chu Lai"
        ],
        "outgoing_edges": [
            "Quảng Ngãi",
            "Bắc Quảng Ngãi",
            "Phong Thử",
            "Túy Loan",
            "Dung Quất",
            "Hà Lam",
            "Chu Lai"
        ]
    },
    {
        "stationName": "Bắc Quảng Ngãi",
        "stationType": 0,
        "stationTypeName": "CLOSED",
        "latitude": 15.157886899925956,
        "longitude": 108.751731,
        "stationOsmId": "12723387255",
        "incoming_edges": [],
        "outgoing_edges": []
    },
    {
        "stationName": "Chu Lai",
        "stationType": 0,
        "stationTypeName": "CLOSED",
        "latitude": 15.442284099959496,
        "longitude": 108.59304729999998,
        "stationOsmId": "12725719649",
        "incoming_edges": [],
        "outgoing_edges": []
    },
    {
        "stationName": "Dung Quất",
        "stationType": 0,
        "stationTypeName": "CLOSED",
        "latitude": 15.352231199948896,
        "longitude": 108.7340259,
        "stationOsmId": "10236670094",
        "incoming_edges": [],
        "outgoing_edges": []
    },
    {
        "stationName": "Hà Lam",
        "stationType": 0,
        "stationTypeName": "CLOSED",
        "latitude": 15.71029794576383,
        "longitude": 108.33535277554552,
        "stationOsmId": "1374419129",
        "incoming_edges": [],
        "outgoing_edges": []
    },
    {
        "stationName": "Phong Thử",
        "stationType": 0,
        "stationTypeName": "CLOSED",
        "latitude": 15.890632603734034,
        "longitude": 108.17368595254888,
        "stationOsmId": "1374419135",
        "incoming_edges": [],
        "outgoing_edges": []
    },
    {
        "stationName": "Quảng Ngãi",
        "stationType": 0,
        "stationTypeName": "CLOSED",
        "latitude": 15.109496301711824,
        "longitude": 108.75765989541584,
        "stationOsmId": "1374419109",
        "incoming_edges": [],
        "outgoing_edges": []
    },
    {
        "stationName": "Túy Loan",
        "stationType": 0,
        "stationTypeName": "CLOSED",
        "latitude": 15.972812000021358,
        "longitude": 108.16284480000002,
        "stationOsmId": "6888345522",
        "incoming_edges": [],
        "outgoing_edges": []
    }
]