[
    {
        "stationName": "An Dân (Thạch Bàn)",
        "stationType": 1,
        "stationTypeName": "OPEN",
        "latitude": 13.349179799716865,
        "longitude": 109.2081907,
        "stationOsmId": "8436783101",
        "incoming_edges": [],
        "outgoing_edges": []
    },
    {
        "stationName": "An Sương - An Lạc",
        "stationType": 1,
        "stationTypeName": "OPEN",
        "latitude": 10.79502456083986,
        "longitude": 106.59663958436786,
        "stationOsmId": "1101467778",
        "incoming_edges": [],
        "outgoing_edges": []
    },
    {
        "stationName": "An Thuận Phát (Phước Tân)",
        "stationType": 1,
        "stationTypeName": "OPEN",
        "latitude": 10.87959379949014,
        "longitude": 106.911847,
        "stationOsmId": "10823778103",
        "incoming_edges": [],
        "outgoing_edges": []
    },
    {
        "stationName": "BOT Quốc Lộ 17B",
        "stationType": 1,
        "stationTypeName": "OPEN",
        "latitude": 20.96477320040369,
        "longitude": 106.5191774,
        "stationOsmId": "2174037722",
        "incoming_edges": [],
        "outgoing_edges": []
    },
    {
        "stationName": "Bình Thung",
        "stationType": 1,
        "stationTypeName": "OPEN",
        "latitude": 10.907618060148613,
        "longitude": 106.79102643896864,
        "stationOsmId": "1010875691",
        "incoming_edges": [],
        "outgoing_edges": []
    },
    {
        "stationName": "Bình Thuận",
        "stationType": 1,
        "stationTypeName": "OPEN",
        "latitude": 10.932602371898122,
        "longitude": 107.96800349083978,
        "stationOsmId": "1482439056",
        "incoming_edges": [],
        "outgoing_edges": []
    },
    {
        "stationName": "Bạc Liêu",
        "stationType": 1,
        "stationTypeName": "OPEN",
        "latitude": 9.374107199412157,
        "longitude": 105.7122544,
        "stationOsmId": "10198627130",
        "incoming_edges": [],
        "outgoing_edges": []
    },
    {
        "stationName": "Bắc Bình Định",
        "stationType": 1,
        "stationTypeName": "OPEN",
        "latitude": 14.397198499836245,
        "longitude": 109.01778799999998,
        "stationOsmId": "8432045544",
        "incoming_edges": [],
        "outgoing_edges": []
    },
    {
        "stationName": "Bắc Ninh Hải Dương",
        "stationType": 1,
        "stationTypeName": "OPEN",
        "latitude": 21.08015440040572,
        "longitude": 106.0921856,
        "stationOsmId": "6862997895",
        "incoming_edges": [],
        "outgoing_edges": []
    },
    {
        "stationName": "Bắc Thăng Long - Nội Bài",
        "stationType": 1,
        "stationTypeName": "OPEN",
        "latitude": 21.203349700407465,
        "longitude": 105.7797789,
        "stationOsmId": "12369764927",
        "incoming_edges": [],
        "outgoing_edges": []
    },
    {
        "stationName": "Bến Lức",
        "stationType": 1,
        "stationTypeName": "OPEN",
        "latitude": 10.656030899475216,
        "longitude": 106.4734695,
        "stationOsmId": "2214428847",
        "incoming_edges": [],
        "outgoing_edges": []
    },
    {
        "stationName": "Bến Thủy 1",
        "stationType": 1,
        "stationTypeName": "OPEN",
        "latitude": 18.648599900288502,
        "longitude": 105.7045709,
        "stationOsmId": "10198878792",
        "incoming_edges": [],
        "outgoing_edges": []
    },
    {
        "stationName": "Bến Thủy 2",
        "stationType": 1,
        "stationTypeName": "OPEN",
        "latitude": 18.640936300287912,
        "longitude": 105.6991218,
        "stationOsmId": "10198877242",
        "incoming_edges": [],
        "outgoing_edges": []
    },
    {
        "stationName": "Cai Chanh",
        "stationType": 1,
        "stationTypeName": "OPEN",
        "latitude": 11.912202600854188,
        "longitude": 107.39056248469794,
        "stationOsmId": "1410065457",
        "incoming_edges": [],
        "outgoing_edges": []
    },
    {
        "stationName": "Cai Lậy - QL1",
        "stationType": 1,
        "stationTypeName": "OPEN",
        "latitude": 10.410184194612592,
        "longitude": 106.06065573378643,
        "stationOsmId": "1017066822",
        "incoming_edges": [],
        "outgoing_edges": []
    },
    {
        "stationName": "Cai Lậy - Tuyến tránh",
        "stationType": 1,
        "stationTypeName": "OPEN",
        "latitude": 10.393384086706927,
        "longitude": 106.1438217759597,
        "stationOsmId": "1225571951",
        "incoming_edges": [],
        "outgoing_edges": []
    },
    {
        "stationName": "Cam Thịnh",
        "stationType": 1,
        "stationTypeName": "OPEN",
        "latitude": 11.872420899568906,
        "longitude": 109.1085785,
        "stationOsmId": "4086614472",
        "incoming_edges": [],
        "outgoing_edges": []
    },
    {
        "stationName": "Chơn Thành",
        "stationType": 1,
        "stationTypeName": "OPEN",
        "latitude": 11.36389149952612,
        "longitude": 106.6276194,
        "stationOsmId": "9201724261",
        "incoming_edges": [],
        "outgoing_edges": []
    },
    {
        "stationName": "Cà Ná",
        "stationType": 1,
        "stationTypeName": "OPEN",
        "latitude": 11.373640099526892,
        "longitude": 108.8810689,
        "stationOsmId": "6860674132",
        "incoming_edges": [],
        "outgoing_edges": []
    },
    {
        "stationName": "Cần Thơ - Phụng Hiệp",
        "stationType": 1,
        "stationTypeName": "OPEN",
        "latitude": 9.972865699436683,
        "longitude": 105.74045099999998,
        "stationOsmId": "9381034607",
        "incoming_edges": [],
        "outgoing_edges": []
    },
    {
        "stationName": "Cầu Bạch Đằng",
        "stationType": 1,
        "stationTypeName": "OPEN",
        "latitude": 20.8628088004016,
        "longitude": 106.7849049,
        "stationOsmId": "12323861336",
        "incoming_edges": [],
        "outgoing_edges": []
    },
    {
        "stationName": "Cầu Phú Cường",
        "stationType": 1,
        "stationTypeName": "OPEN",
        "latitude": 10.983531699497444,
        "longitude": 106.6431918,
        "stationOsmId": "13148658999",
        "incoming_edges": [],
        "outgoing_edges": []
    },
    {
        "stationName": "Cầu Rạch Miễu",
        "stationType": 1,
        "stationTypeName": "OPEN",
        "latitude": 10.314729876318813,
        "longitude": 106.34837555286845,
        "stationOsmId": "1025088286",
        "incoming_edges": [],
        "outgoing_edges": []
    },
    {
        "stationName": "Cẩm Phả",
        "stationType": 1,
        "stationTypeName": "OPEN",
        "latitude": 21.00303405808283,
        "longitude": 107.3273623742909,
        "stationOsmId": "-19037572",
        "incoming_edges": [],
        "outgoing_edges": []
    },
    {
        "stationName": "Cổ Chiên",
        "stationType": 1,
        "stationTypeName": "OPEN",
        "latitude": 10.019911169934328,
        "longitude": 106.29746562304084,
        "stationOsmId": "1011243028",
        "incoming_edges": [],
        "outgoing_edges": []
    },
    {
        "stationName": "DT741",
        "stationType": 1,
        "stationTypeName": "OPEN",
        "latitude": 11.221867296920102,
        "longitude": 106.72532641673897,
        "stationOsmId": "1096685801",
        "incoming_edges": [],
        "outgoing_edges": []
    },
    {
        "stationName": "Ea Đar Đắk Lắk",
        "stationType": 1,
        "stationTypeName": "OPEN",
        "latitude": 12.812885499659654,
        "longitude": 108.5116708,
        "stationOsmId": "668471135",
        "incoming_edges": [],
        "outgoing_edges": []
    },
    {
        "stationName": "Genimex trạm số 1",
        "stationType": 1,
        "stationTypeName": "OPEN",
        "latitude": 10.97783619949704,
        "longitude": 106.74488449999998,
        "stationOsmId": "9322484528",
        "incoming_edges": [],
        "outgoing_edges": []
    },
    {
        "stationName": "Genimex trạm số 2",
        "stationType": 1,
        "stationTypeName": "OPEN",
        "latitude": 10.974010799496767,
        "longitude": 106.7712123,
        "stationOsmId": "9301612561",
        "incoming_edges": [],
        "outgoing_edges": []
    },
    {
        "stationName": "Genimex trạm số 3",
        "stationType": 1,
        "stationTypeName": "OPEN",
        "latitude": 11.027577999500611,
        "longitude": 106.7749224,
        "stationOsmId": "10030773244",
        "incoming_edges": [],
        "outgoing_edges": []
    },
    {
        "stationName": "Gia Lai 1",
        "stationType": 1,
        "stationTypeName": "OPEN",
        "latitude": 13.874361699775724,
        "longitude": 108.00810769999998,
        "stationOsmId": "10198842784",
        "incoming_edges": [],
        "outgoing_edges": []
    },
    {
        "stationName": "Gia Lai 2",
        "stationType": 1,
        "stationTypeName": "OPEN",
        "latitude": 13.413531099723944,
        "longitude": 108.09282399999998,
        "stationOsmId": "9921799661",
        "incoming_edges": [],
        "outgoing_edges": []
    },
    {
        "stationName": "Hoàng Mai",
        "stationType": 1,
        "stationTypeName": "OPEN",
        "latitude": 19.301875955798863,
        "longitude": 105.72421030724514,
        "stationOsmId": "1183845008",
        "incoming_edges": [],
        "outgoing_edges": []
    },
    {
        "stationName": "Hà Nội - Bắc Giang",
        "stationType": 1,
        "stationTypeName": "OPEN",
        "latitude": 21.09034654982544,
        "longitude": 105.96045260948794,
        "stationOsmId": "1095628565",
        "incoming_edges": [],
        "outgoing_edges": []
    },
    {
        "stationName": "Hòa Lạc Hòa Bình",
        "stationType": 1,
        "stationTypeName": "OPEN",
        "latitude": 20.9652301393474,
        "longitude": 105.3980535300808,
        "stationOsmId": "1105237556",
        "incoming_edges": [],
        "outgoing_edges": []
    },
    {
        "stationName": "Hòa Phước",
        "stationType": 1,
        "stationTypeName": "OPEN",
        "latitude": 16.050652600030315,
        "longitude": 108.20513789999998,
        "stationOsmId": "6856306592",
        "incoming_edges": [],
        "outgoing_edges": []
    },
    {
        "stationName": "Hạc Trì",
        "stationType": 1,
        "stationTypeName": "OPEN",
        "latitude": 21.29458515209657,
        "longitude": 105.4492600616463,
        "stationOsmId": "1182173344",
        "incoming_edges": [],
        "outgoing_edges": []
    },
    {
        "stationName": "Hầm Cù Mông",
        "stationType": 1,
        "stationTypeName": "OPEN",
        "latitude": 13.703475792467366,
        "longitude": 109.1745154532575,
        "stationOsmId": "1156958867",
        "incoming_edges": [],
        "outgoing_edges": []
    },
    {
        "stationName": "Hầm Đèo Cả",
        "stationType": 1,
        "stationTypeName": "OPEN",
        "latitude": 12.90329032751639,
        "longitude": 109.36572994297042,
        "stationOsmId": "1177157173",
        "incoming_edges": [],
        "outgoing_edges": []
    },
    {
        "stationName": "KM124+720 Gia Lai",
        "stationType": 1,
        "stationTypeName": "OPEN",
        "latitude": 14.0546549,
        "longitude": 108.3295798,
        "stationOsmId": "13954067960",
        "incoming_edges": [],
        "outgoing_edges": []
    },
    {
        "stationName": "Liên Đầm",
        "stationType": 1,
        "stationTypeName": "OPEN",
        "latitude": 11.5664484,
        "longitude": 107.998814,
        "stationOsmId": "13955413679",
        "incoming_edges": [],
        "outgoing_edges": []
    },
    {
        "stationName": "Lào Cai - Sapa",
        "stationType": 1,
        "stationTypeName": "OPEN",
        "latitude": 22.4167523004016,
        "longitude": 103.9070398,
        "stationOsmId": "11183842756",
        "incoming_edges": [],
        "outgoing_edges": []
    },
    {
        "stationName": "Lái Thiêu",
        "stationType": 1,
        "stationTypeName": "OPEN",
        "latitude": 10.888731999490767,
        "longitude": 106.7007135,
        "stationOsmId": "6859613339",
        "incoming_edges": [],
        "outgoing_edges": []
    },
    {
        "stationName": "Mỹ Lộc",
        "stationType": 1,
        "stationTypeName": "OPEN",
        "latitude": 20.447490400390063,
        "longitude": 106.1197806,
        "stationOsmId": "2581153386",
        "incoming_edges": [],
        "outgoing_edges": []
    },
    {
        "stationName": "Nam Bình Định",
        "stationType": 1,
        "stationTypeName": "OPEN",
        "latitude": 13.87136999977538,
        "longitude": 109.125348,
        "stationOsmId": "6950227536",
        "incoming_edges": [],
        "outgoing_edges": []
    },
    {
        "stationName": "Ninh Lộc",
        "stationType": 1,
        "stationTypeName": "OPEN",
        "latitude": 12.444463499622486,
        "longitude": 109.1206085,
        "stationOsmId": "6860612354",
        "incoming_edges": [],
        "outgoing_edges": []
    },
    {
        "stationName": "Ninh Xuân (Khánh Hòa)",
        "stationType": 1,
        "stationTypeName": "OPEN",
        "latitude": 12.50712116358481,
        "longitude": 109.0689016035974,
        "stationOsmId": "1178115953",
        "incoming_edges": [],
        "outgoing_edges": []
    },
    {
        "stationName": "Phú Bài",
        "stationType": 1,
        "stationTypeName": "OPEN",
        "latitude": 16.370315400066637,
        "longitude": 107.7249504,
        "stationOsmId": "6860166455",
        "incoming_edges": [],
        "outgoing_edges": []
    },
    {
        "stationName": "Phú Hữu",
        "stationType": 1,
        "stationTypeName": "OPEN",
        "latitude": 10.791568399484131,
        "longitude": 106.80751779999999,
        "stationOsmId": "9369335528",
        "incoming_edges": [],
        "outgoing_edges": []
    },
    {
        "stationName": "Phú Mỹ",
        "stationType": 1,
        "stationTypeName": "OPEN",
        "latitude": 10.759983949482018,
        "longitude": 106.76485485,
        "stationOsmId": "1098418720",
        "incoming_edges": [],
        "outgoing_edges": []
    },
    {
        "stationName": "Phả Lại",
        "stationType": 1,
        "stationTypeName": "OPEN",
        "latitude": 21.116672400406284,
        "longitude": 106.2764928,
        "stationOsmId": "13602049340",
        "incoming_edges": [],
        "outgoing_edges": []
    },
    {
        "stationName": "Quán Hàu",
        "stationType": 1,
        "stationTypeName": "OPEN",
        "latitude": 17.391885866330295,
        "longitude": 106.64694542224848,
        "stationOsmId": "1175282468",
        "incoming_edges": [],
        "outgoing_edges": []
    },
    {
        "stationName": "Quốc Lộ 5 Trạm số 1 Hưng Yên",
        "stationType": 1,
        "stationTypeName": "OPEN",
        "latitude": 20.9492920004034,
        "longitude": 106.01254389999998,
        "stationOsmId": "481837637",
        "incoming_edges": [],
        "outgoing_edges": []
    },
    {
        "stationName": "Quốc Lộ 5 Trạm số 2 Hải Phòng",
        "stationType": 1,
        "stationTypeName": "OPEN",
        "latitude": 20.90844120040257,
        "longitude": 106.5726631,
        "stationOsmId": "10185562123",
        "incoming_edges": [],
        "outgoing_edges": []
    },
    {
        "stationName": "Suối Giữa",
        "stationType": 1,
        "stationTypeName": "OPEN",
        "latitude": 11.005232549469996,
        "longitude": 106.6456086332862,
        "stationOsmId": "1012928174",
        "incoming_edges": [],
        "outgoing_edges": []
    },
    {
        "stationName": "Sóc Trăng",
        "stationType": 1,
        "stationTypeName": "OPEN",
        "latitude": 9.659737599422748,
        "longitude": 105.9312135,
        "stationOsmId": "10198601713",
        "incoming_edges": [],
        "outgoing_edges": []
    },
    {
        "stationName": "Sông Phan",
        "stationType": 1,
        "stationTypeName": "OPEN",
        "latitude": 10.87528119948984,
        "longitude": 107.93136599999998,
        "stationOsmId": "1588276876",
        "incoming_edges": [],
        "outgoing_edges": []
    },
    {
        "stationName": "TL 353",
        "stationType": 1,
        "stationTypeName": "OPEN",
        "latitude": 20.7761463003996,
        "longitude": 106.72394325,
        "stationOsmId": "1329847084",
        "incoming_edges": [],
        "outgoing_edges": []
    },
    {
        "stationName": "Tam Nông",
        "stationType": 1,
        "stationTypeName": "OPEN",
        "latitude": 21.24329240040793,
        "longitude": 105.3260393,
        "stationOsmId": "1038124365",
        "incoming_edges": [],
        "outgoing_edges": []
    },
    {
        "stationName": "Tasco Quảng Bình",
        "stationType": 1,
        "stationTypeName": "OPEN",
        "latitude": 17.890236200223878,
        "longitude": 106.4508467,
        "stationOsmId": "668714123",
        "incoming_edges": [],
        "outgoing_edges": []
    },
    {
        "stationName": "Thanh Lương",
        "stationType": 1,
        "stationTypeName": "OPEN",
        "latitude": 11.72278312473486,
        "longitude": 106.58323898498924,
        "stationOsmId": "1012698037",
        "incoming_edges": [],
        "outgoing_edges": []
    },
    {
        "stationName": "Thu phí T1 QL91",
        "stationType": 1,
        "stationTypeName": "OPEN",
        "latitude": 10.111776099443633,
        "longitude": 105.6487572,
        "stationOsmId": "5003536551",
        "incoming_edges": [],
        "outgoing_edges": []
    },
    {
        "stationName": "Thu phí số 2 QL14",
        "stationType": 1,
        "stationTypeName": "OPEN",
        "latitude": 11.564025999542377,
        "longitude": 106.95400569999998,
        "stationOsmId": "1508894331",
        "incoming_edges": [],
        "outgoing_edges": []
    },
    {
        "stationName": "Thuận Phú",
        "stationType": 1,
        "stationTypeName": "OPEN",
        "latitude": 11.577375420033396,
        "longitude": 106.89440792879918,
        "stationOsmId": "1254808120",
        "incoming_edges": [],
        "outgoing_edges": []
    },
    {
        "stationName": "Thái Nguyên Chợ Mới",
        "stationType": 1,
        "stationTypeName": "OPEN",
        "latitude": 21.644076800410176,
        "longitude": 105.7861744,
        "stationOsmId": "10001978675",
        "incoming_edges": [],
        "outgoing_edges": []
    },
    {
        "stationName": "Tiên Cựu",
        "stationType": 1,
        "stationTypeName": "OPEN",
        "latitude": 20.7766163003996,
        "longitude": 106.5080382,
        "stationOsmId": "6864061670",
        "incoming_edges": [],
        "outgoing_edges": []
    },
    {
        "stationName": "Toàn Mỹ (Đắk Nông)",
        "stationType": 1,
        "stationTypeName": "OPEN",
        "latitude": 12.56122269963406,
        "longitude": 107.822395,
        "stationOsmId": "10198600410",
        "incoming_edges": [],
        "outgoing_edges": []
    },
    {
        "stationName": "Trạm Bù Nho",
        "stationType": 1,
        "stationTypeName": "OPEN",
        "latitude": 11.727515863906032,
        "longitude": 106.87504140773216,
        "stationOsmId": "1172933249",
        "incoming_edges": [],
        "outgoing_edges": []
    },
    {
        "stationName": "Trạm Thu phí Cầu Mỹ Lợi",
        "stationType": 1,
        "stationTypeName": "OPEN",
        "latitude": 10.4628468907798,
        "longitude": 106.64416358295638,
        "stationOsmId": "1173001123",
        "incoming_edges": [],
        "outgoing_edges": []
    },
    {
        "stationName": "Trạm Thu phí Km 49+550 Quốc lộ 19",
        "stationType": 1,
        "stationTypeName": "OPEN",
        "latitude": 13.944511999783748,
        "longitude": 108.8577499,
        "stationOsmId": "8938682367",
        "incoming_edges": [],
        "outgoing_edges": []
    },
    {
        "stationName": "Trạm Xa Lộ - Hà Nội",
        "stationType": 1,
        "stationTypeName": "OPEN",
        "latitude": 10.819014499485986,
        "longitude": 106.75793189999999,
        "stationOsmId": "6775351396",
        "incoming_edges": [],
        "outgoing_edges": []
    },
    {
        "stationName": "Trạm thu phí Bắc Hầm Hải Vân",
        "stationType": 1,
        "stationTypeName": "OPEN",
        "latitude": 16.228360900050603,
        "longitude": 108.0847514,
        "stationOsmId": "668605383",
        "incoming_edges": [],
        "outgoing_edges": []
    },
    {
        "stationName": "Trảng Bom",
        "stationType": 1,
        "stationTypeName": "OPEN",
        "latitude": 10.945379057786033,
        "longitude": 107.05745417583005,
        "stationOsmId": "1093353487",
        "incoming_edges": [],
        "outgoing_edges": []
    },
    {
        "stationName": "Tân Khai",
        "stationType": 1,
        "stationTypeName": "OPEN",
        "latitude": 11.56984940463746,
        "longitude": 106.61733226303792,
        "stationOsmId": "176792793",
        "incoming_edges": [],
        "outgoing_edges": []
    },
    {
        "stationName": "Tân Lập",
        "stationType": 1,
        "stationTypeName": "OPEN",
        "latitude": 11.38815642549126,
        "longitude": 106.82561830415916,
        "stationOsmId": "1020149679",
        "incoming_edges": [],
        "outgoing_edges": []
    },
    {
        "stationName": "Tư Nghĩa",
        "stationType": 1,
        "stationTypeName": "OPEN",
        "latitude": 15.063467799914788,
        "longitude": 108.8395454,
        "stationOsmId": "6860315448",
        "incoming_edges": [],
        "outgoing_edges": []
    },
    {
        "stationName": "Văn Lang",
        "stationType": 1,
        "stationTypeName": "OPEN",
        "latitude": 21.285534900408383,
        "longitude": 105.4040101,
        "stationOsmId": "6563222996",
        "incoming_edges": [],
        "outgoing_edges": []
    },
    {
        "stationName": "Vĩnh Phú",
        "stationType": 1,
        "stationTypeName": "OPEN",
        "latitude": 10.88681552674493,
        "longitude": 106.69970961752706,
        "stationOsmId": "1007900115",
        "incoming_edges": [],
        "outgoing_edges": []
    },
    {
        "stationName": "Xuân Mai Hòa Bình",
        "stationType": 1,
        "stationTypeName": "OPEN",
        "latitude": 20.87036550040176,
        "longitude": 105.513756,
        "stationOsmId": "12452756354",
        "incoming_edges": [],
        "outgoing_edges": []
    },
    {
        "stationName": "Yên Lệnh",
        "stationType": 1,
        "stationTypeName": "OPEN",
        "latitude": 20.65895350039653,
        "longitude": 106.0490359,
        "stationOsmId": "10198957829",
        "incoming_edges": [],
        "outgoing_edges": []
    },
    {
        "stationName": "Đông Hà",
        "stationType": 1,
        "stationTypeName": "OPEN",
        "latitude": 16.785203600112425,
        "longitude": 107.1500252,
        "stationOsmId": "3516472469",
        "incoming_edges": [],
        "outgoing_edges": []
    },
    {
        "stationName": "Đông Hưng",
        "stationType": 1,
        "stationTypeName": "OPEN",
        "latitude": 20.558728600393625,
        "longitude": 106.3679126,
        "stationOsmId": "10198933880",
        "incoming_edges": [],
        "outgoing_edges": []
    },
    {
        "stationName": "Đường 768",
        "stationType": 1,
        "stationTypeName": "OPEN",
        "latitude": 10.980256428744656,
        "longitude": 106.84771107495057,
        "stationOsmId": "1090402313",
        "incoming_edges": [],
        "outgoing_edges": []
    },
    {
        "stationName": "Đại Yên",
        "stationType": 1,
        "stationTypeName": "OPEN",
        "latitude": 20.986202800404104,
        "longitude": 106.9030714,
        "stationOsmId": "12788166743",
        "incoming_edges": [],
        "outgoing_edges": []
    },
    {
        "stationName": "Đắk Song",
        "stationType": 1,
        "stationTypeName": "OPEN",
        "latitude": 12.188447599597843,
        "longitude": 107.6377142,
        "stationOsmId": "10826144165",
        "incoming_edges": [],
        "outgoing_edges": []
    },
    {
        "stationName": "Định An",
        "stationType": 1,
        "stationTypeName": "OPEN",
        "latitude": 11.859633899567774,
        "longitude": 108.4578695,
        "stationOsmId": "1403291202",
        "incoming_edges": [],
        "outgoing_edges": []
    },
    {
        "stationName": "Đức Hòa",
        "stationType": 1,
        "stationTypeName": "OPEN",
        "latitude": 10.777566299483194,
        "longitude": 106.4394739,
        "stationOsmId": "10196742008",
        "incoming_edges": [],
        "outgoing_edges": []
    }
]